OBJECTID,PARK_ID,FACILITYID,ADDRESS,SURFACE,CAPACITY,HANDICAP,PAY_PARK,PAY_TYPE,LIGHTING,FENCED,Latitude,Longitude
1,563,4979,321 KING EDWARD AVE Old Ottawa,asphalt,12,1,n,none,y,y,45.4308333355,-75.6863166672
2,573,25008,8 LADY GREY DR Old Ottawa,gravel,45,0,y,permit,n,n,45.4344634524,-75.7000510671
3,573,25009,8 LADY GREY DR Old Ottawa,asphalt,45,0,y,permit,y,n,45.4351047465,-75.6995389441
4,159,25010,2100 CABOT ST Old Ottawa,asphalt,28,2,n,none,y,n,45.389278748,-75.6719218484
5,1169,25011,1137 WELLINGTON ST Old Ottawa,gravel,5,2,n,none,y,y,45.402250002,-75.7269166662
6,157,25013,579 BYRON AVE Old Ottawa,asphalt,12,0,n,none,n,n,45.3775500022,-75.7746166672
7,727,25014,190 MORRENA RD Kanata,asphalt,26,2,n,none,n,n,45.2963156387,-75.8854729875
8,5,25015,70 AIRD PL Kanata,asphalt,250,7,n,none,y,n,45.3118403678,-75.8995411867
9,1054,25016,35 STAFFORD RD Nepean,asphalt,15,0,n,none,y,n,45.3286846479,-75.8220806548
10,187,25017,3259 CARLING AVE Nepean,asphalt,200,0,n,none,y,n,45.3514539951,-75.8287434924
11,187,25018,3259 CARLING AVE Nepean,dirt,150,0,n,none,y,y,45.3505403582,-75.8263252441
12,891,4913,345 RICHMOND RD Old Ottawa,asphalt,15,1,n,none,y,n,45.3924556278,-75.7542909056
13,52,4982,945 BANK ST Old Ottawa,asphalt,200,15,y,attendants,y,y,45.39723985,-75.6842931796
14,52,4983,945 BANK ST Old Ottawa,asphalt,1000,0,y,attendants,y,y,45.3987779829,-75.681774076
15,52,4984,945 BANK ST Old Ottawa,asphalt,1000,0,y,attendants,y,y,45.4005054626,-75.6816064488
16,52,25020,945 BANK ST Old Ottawa,asphalt,200,0,y,attendants,y,y,45.3995954039,-75.6857827485
17,52,4981,945 BANK ST Old Ottawa,asphalt,200,0,y,attendants,y,y,45.399257241,-75.6849659785
18,386,25022,681 DEANCOURT CRES Cumberland,asphalt,45,1,n,none,y,n,45.4810472183,-75.4879809219
19,843,25023,1600 PRESTWICK DR Cumberland,asphalt,22,0,n,none,n,n,45.4675376864,-75.498071926
20,1327,25024,499 DES EPINETTES AVE Cumberland,asphalt,26,2,n,none,n,n,45.4638241435,-75.4980181566
21,526,25025,1797 DES EPINETTES AVE Gloucester,asphalt,11,1,n,none,n,n,45.4609632638,-75.5083554744
22,195,25026,6601 CARRIERE ST Gloucester,asphalt,32,0,n,none,n,y,45.4663500025,-75.5237000002
23,476,25027,1410 HENRI LAUZON ST Gloucester,gravel,35,0,n,none,n,y,45.4632500027,-75.5366500006
24,67,25028,1705 ORLEANS BLVD Gloucester,asphalt,100,4,n,none,y,n,45.457216669,-75.5233833336
25,157,25012,579 BYRON AVE Old Ottawa,asphalt,7,0,n,none,n,n,45.3979500025,-75.7313000002
26,1003,25019,960 SILVER ST Old Ottawa,asphalt,18,1,n,none,y,n,45.3803903362,-75.7312025278
27,753,25021,2157 NORTHLANDS DR Cumberland,asphalt,24,0,n,none,n,n,45.4703753272,-75.4761347334
28,501,25029,6250 BEAUSEJOUR DR Gloucester,asphalt,35,1,n,none,n,y,45.4577189192,-75.5317097967
29,1005,25031,1855 SIMARD DR Gloucester,asphalt,14,1,n,none,n,n,45.4424675717,-75.5287375045
30,1219,25038,1490 YOUVILLE DR Gloucester,asphalt,118,0,n,none,y,n,45.467050002,-75.5459833333
31,1157,25046,100 WALTER BAKER PL Kanata,asphalt,220,4,n, ,y,n,45.2950772698,-75.9001234788
32,727,25053,190 MORRENA RD Kanata,asphalt,26,2,n, ,y,n,45.2962139536,-75.8853224875
33,181,4967,2730 CARLING AVE Old Ottawa,asphalt,18,1,n,none,n,n,45.3598613003,-75.7934112105
34,693,25064,1448 MEADOW DR Osgoode,asphalt,85,2,n,none,y,n,45.2613418654,-75.5568334607
35,925,25072,660 RIVER RD Gloucester,asphalt,42,2,n,none,n,n,45.2729333358,-75.6984833331
36,1321,25079,1660 BEARBROOK RD Gloucester,gravel,125,0,n,none,n,y,45.4428697956,-75.5757689426
37,768,25088,3447 OLD ALMONTE ROAD West Carleton,gravel,38,0,n,none,n,y,45.2593159504,-76.0616474875
38,37,25092,2185 ARCH ST Old Ottawa,asphalt,0,2,n,none,n,n,45.3908000021,-75.6306000006
39,444,25096,152 GRANDVIEW RD Nepean,asphalt,14,0,n,none,n,y,45.3611027831,-75.8568821634
40,943,25105,5715 ROCKDALE RD Cumberland,asphalt,49,1,n,none,y,n,45.3557994583,-75.3521694053
41,182,25108,2805 CARLING AVE Old Ottawa,gravel,50,0,n,none,y,n,45.3606082912,-75.7968409972
42,134,4943,100 BREWER WAY Old Ottawa,asphalt,60,0,n,none,y,n,45.3879246336,-75.6907359234
43,220,25112,260 CENTREPOINTE DR Nepean,asphalt,80,0,n,none,n,n,45.3397405782,-75.7705490517
44,783,25119,6160 ORLEANS BLVD Gloucester,asphalt,80,4,n,none,y,n,45.452978881,-75.5356638687
45,137,25128,65 STONEHAVEN DR Kanata,gravel,55,0,n,none,y,n,45.2898554287,-75.8562634622
46,80,25135,1365 HALTON TER Kanata,asphalt,70,0,n,none,y,n,45.3484240727,-75.9374363464
47,681,25142,307 MCARTHUR AVE Vanier,asphalt,200,2,n,none,y,y,45.4333686112,-75.6554809946
48,701,25030,6210 MEADOWGLEN DR Gloucester,asphalt,21,1,n,none,n,n,45.4493833359,-75.5291833338
49,1323,25032,5831 GLADEWOODS PL Gloucester,asphalt,20,2,n,none,n,y,45.4401486551,-75.5325943556
50,343,25033,1485 DUFORD DR Cumberland,asphalt,50,1,n,none,y,n,45.4712005341,-75.508244587
51,1053,25034,1257 JOSEPH DROUIN AVE Gloucester,gravel,100,0,n,none,n,y,45.4758036472,-75.5240892027
52,343,25035,1485 DUFORD DR Cumberland,asphalt,40,0,n,none,n,n,45.4701833359,-75.5082166661
53,1219,25036,1490 YOUVILLE DR Gloucester,asphalt,100,2,n,none,y,n,45.466033336,-75.5434333327
54,1219,25037,1490 YOUVILLE DR Gloucester,asphalt,165,6,n,none,y,n,45.4662666689,-75.5460166664
55,1219,25039,1490 YOUVILLE DR Gloucester,asphalt,10,0,n,none,y,n,45.4672621386,-75.5453560462
56,1309,25040,6026 VOYAGEUR DR Gloucester,asphalt,21,1,n,none,n,n,45.4742155518,-75.5518729802
57,779,25041,6218 VOYAGEUR DR Gloucester,asphalt,4,0,n,none,n,y,45.4784576813,-75.5467416074
58,106,25042,956 BILBERRY DR Gloucester,asphalt,11,0,n,none,n,n,45.4838166687,-75.5335166668
59,581,25043,109 LARCH CRES Cumberland,asphalt,17,1,n,none,y,n,45.4873844811,-75.5216827358
60,1511,25044,998 VALIN ST Cumberland,asphalt,55,1,n,none,y,n,45.4715166694,-75.4624500005
61,1157,25045,100 WALTER BAKER PL Kanata,asphalt,110,8,n, ,y,n,45.2948667377,-75.9008761382
62,1157,25047,100 WALTER BAKER PL Kanata,gravel,150,0,n, ,n,n,45.2970500021,-75.9060000003
63,1163,4963,539 WAVELL AVE Old Ottawa,asphalt,10,0,n, ,n,n,45.3831078687,-75.7662559803
64,690,25048,10 MCKITRICK DR Kanata,paved,0,2,n, ,n,n,45.2934500027,-75.8841999995
65,690,25049,10 MCKITRICK DR Kanata,paved,44,0,n, ,n,n,45.2933763103,-75.8833699709
66,690,25050,10 MCKITRICK DR Kanata,paved,54,2,n, ,y,n,45.2938500026,-75.8836000005
67,1524,25051,75 BRIDLEWOOD DR Kanata,asphalt,18,0,n, ,n,n,45.2936921906,-75.8648543791
68,776,25052,70 CASTLEFRANK RD Kanata,asphalt,15,0,n, ,n,n,45.295150002,-75.8851666663
69,206,25054,170 CASTLEFRANK RD Kanata,gravel,25,0,n, ,n,n,45.2912691008,-75.8769412505
70,881,25055,25 RANGE RD Old Ottawa,asphalt,36,0,n, ,y,n,45.4258114636,-75.6713165114
71,873,25056,33 QUILL ST Old Ottawa,asphalt,28,0,n, ,n,n,45.4254500022,-75.6572499996
72,921,25057,400 NORTH RIVER RD Vanier,asphalt,28,2,y,meters,y,n,45.4308666688,-75.6696500005
73,324,25058,300 DES PERES BLANCS AVE Vanier,asphalt,50,2,n, ,y,n,45.4443333355,-75.6600166664
74,345,4990,2850 DUMAURIER AVE Old Ottawa,asphalt,39,1,n,none,n,n,45.3502278944,-75.7924833457
75,345,25059,2850 DUMAURIER AVE Old Ottawa,asphalt,38,1,n,none,n,n,45.3519000026,-75.7918666663
76,1195,25060,175 WOODRIDGE CRES Nepean,asphalt,8,1,n,none,n,n,45.3512781036,-75.8096346377
77,330,25061,5572 DOCTOR LEACH DR Rideau,gravel,250,0,n, ,y,n,45.2221502478,-75.6861772777
78,926,25062,894 RIVER RD Gloucester,gravel,40,0,n,none,n, ,45.2431000024,-75.692116667
79,693,25063,1448 MEADOW DR Osgoode,gravel,175,0,n,none,y,n,45.2573550243,-75.5663324717
80,693,25065,1448 MEADOW DR Osgoode,gravel,40,0,n,none,n,n,45.2611866594,-75.5560430846
81,377,25066,1841 ELMRIDGE DR Gloucester,asphalt,15,1,n,none,n,n,45.443093202,-75.6038558055
82,271,25067,11 COMBERMERE LANE Gloucester,gravel,26,0,n,none,y,n,45.4595738817,-75.6141997698
83,993,25068,813 SHEFFORD RD Gloucester,asphalt,110,4,n,none,y,n,45.4578059296,-75.5911667555
84,762,25069,2030 OGILVIE RD Gloucester,asphalt,20,2,n,none,y,n,45.4379166695,-75.6017333332
85,762,25070,2030 OGILVIE RD Gloucester,asphalt,70,0,n,none,y,n,45.4372500026,-75.6018499997
86,762,25071,2030 OGILVIE RD Gloucester,asphalt,215,2,n,none,y,n,45.437016669,-75.6010000003
87,1002,25073,4310 SHORELINE DR Gloucester,asphalt,44,4,n,none,y,n,45.2772253199,-75.6869844006
88,923,25074,334 RIVER RD Gloucester,gravel,100,2,n,none,n,n,45.315130746,-75.695992863
89,961,25075,14 RYEBURN DR Gloucester,asphalt,5,0,n,none,n,n,45.283178479,-75.6956296275
90,496,25076,70 FOXFIELD DR Nepean,asphalt,10,1,n,none,n,n,45.2864124334,-75.7494012609
91,430,25077,190 GLEN PARK DR Gloucester,asphalt,90,2,n,none,y,n,45.4300333362,-75.5628833334
92,430,25078,190 GLEN PARK DR Gloucester,asphalt,12,0,n,none,y,n,45.4298330174,-75.56380121
93,513,25080,2436 INNES ROAD Gloucester,gravel,35,1,n,none,n,n,45.4267924316,-75.5717466843
94,1080,25081,7 SYCAMORE DR Nepean,asphalt,15,3,n,none,y,n,45.3191026886,-75.8220653389
95,1080,25082,7 SYCAMORE DR Nepean,asphalt,12,0,n,none,n,n,45.3195000021,-75.8193333336
96,360,25083,2 EATON ST Nepean,asphalt,18,2,n,none,n,n,45.3264252874,-75.8166322271
97,200,25084,50 CASSIDY RD Nepean,asphalt,50,2,n,none,y,n,45.3250333356,-75.8104333337
98,200,25085,50 CASSIDY RD Nepean,gravel,100,0,n,none,n,n,45.3252320849,-75.8087085095
99,1060,25086,3035 STEEPLE HILL CRES Nepean,gravel,15,0,n,none,n,y,45.2529854049,-75.8085906731
100,407,25087,74 FORESTVIEW CRES Nepean,gravel,40,0,n,none,n,n,45.1582425694,-76.0296551161
101,806,4957,3320 PAUL ANKA DR Old Ottawa,asphalt,40,1,n,none,y,n,45.3517474731,-75.6727465156
102,990,25089,3560 WYMAN PL Gloucester,asphalt,11,1,n,none,n,y,45.3456666689,-75.6592333329
103,160,25090,1505 CAHILL DR Old Ottawa,asphalt,24,0,n,none,y,n,45.361646631,-75.6377835638
104,160,4956,1505 CAHILL DR Old Ottawa,asphalt,72,3,n,none,y,n,45.36371282,-75.6351113776
105,631,25091,250 LORRY GREENBERG DR Old Ottawa,gravel,24,0,n,none,n,n,45.3617000024,-75.6324666671
106,1610,4955,4703 NORTHWOODS DRIVE West Carleton,asphalt,12,1,n,none,y,n,45.3629785682,-75.6468159841
107,37,4947,2185 ARCH ST Old Ottawa,asphalt,135,3,n,none,y,n,45.3909666692,-75.6292333332
108,37,25093,2185 ARCH ST Old Ottawa,asphalt,37,4,n,none,y,n,45.3900000028,-75.6294666672
109,1046,25094,1816 ST. LAURENT BLVD Old Ottawa,asphalt,32,1,n,none,y,n,45.4025308293,-75.6268142095
110,968,25095,2850 SANDALWOOD DR Old Ottawa,asphalt,8,0,n,none,n,n,45.3785346066,-75.6483393186
111,1153,114,1265 WALKLEY RD Old Ottawa,asphalt,32,0,n,none,n,n,45.3735853323,-75.6589704925
112,1153,4902,1265 WALKLEY RD Old Ottawa,asphalt,230,7,n,none,y,n,45.3730666695,-75.6598499995
113,553,4998,1615 KILBORN AVE Old Ottawa,gravel,16,0,n,none,n,n,45.3874126795,-75.6551435665
114,597,25097,19 LEEMING DR Nepean,asphalt,10,0,n,none,y,n,45.3499243913,-75.8333480107
115,186,25098,3127 CARLING AVE Nepean,asphalt,96,2,n,none,y,n,45.3494797436,-75.82204637
116,186,25099,3127 CARLING AVE Nepean,asphalt,84,2,n,none,n,y,45.3515182463,-75.8143058298
117,283,25100,61 CORKSTOWN RD Nepean,asphalt,25,2,n,none,n,n,45.3458652343,-75.8274328453
118,744,25101,3659 NAVAN RD Gloucester,gravel,26,0,n,none,n,n,45.4282105602,-75.4915223363
119,744,25102,3659 NAVAN RD Gloucester,asphalt,28,2,n,none,y,n,45.4276666688,-75.4915666664
120,365,25103,6020 EIGHTH LINE RD Gloucester,gravel,55,0,n,none,n,n,45.3654273291,-75.4645840626
121,960,25104,8720 RUSSELL RD Cumberland,asphalt,50,2,n,none,n,n,45.3835801035,-75.3374317403
122,470,4941,2915 HAUGHTON AVE Old Ottawa,asphalt,26,1,n,none,y,n,45.3596139996,-75.8038513527
123,182,25106,2805 CARLING AVE Old Ottawa,asphalt,112,3,n,none,y,n,45.3634255601,-75.8020896247
124,182,25107,2805 CARLING AVE Old Ottawa,asphalt,80,0,n,none,y,n,45.3640542842,-75.7994191372
125,711,4965,2955 MICHELE DR Old Ottawa,asphalt,26,2,n,none,y,n,45.3549399779,-75.8024350095
126,22,25109,950 ALPINE AVE Old Ottawa,asphalt,25,0,n,none,n,n,45.3570596588,-75.7904991771
127,890,4952,40 REID AVE Old Ottawa,asphalt,14,0,n,none,n,n,45.3977134304,-75.7230125434
128,890,25110,40 REID AVE Old Ottawa,asphalt,34,0,n,none,y,y,45.3977443189,-75.7248227381
129,812,25225,435 BRONSON AVE Old Ottawa,asphalt,58,3,n,none,y,n,45.4094666695,-75.7021166665
130,134,4910,100 BREWER WAY Old Ottawa,asphalt,100,0,n,none,n,n,45.3858916423,-75.6888728807
131,134,4986,100 BREWER WAY Old Ottawa,asphalt,115,3,n,none,y,n,45.3896166692,-75.6908000005
132,249,4988,120 CLEGG ST Old Ottawa,asphalt,18,0,n,none,n,n,45.4074797398,-75.6728617967
133,638,4907,690 LYON ST Old Ottawa,asphalt,10,0,n,none,n,n,45.4020626423,-75.6911879636
134,1013,4951,755 SOMERSET ST Old Ottawa,asphalt,13,1,n,none,n,y,45.4103833358,-75.709216666
135,461,4911,172 GUIGUES AVE Old Ottawa,asphalt,30,2,n,none,n,n,45.4321318965,-75.6911119194
136,258,25224,40 COBOURG ST Old Ottawa,asphalt,48,1,n,none,y,n,45.4343747095,-75.6808919223
137,69,25111,2960 BASELINE RD Nepean,asphalt,20,0,n,none,n,y,45.33464222,-75.8019671496
138,101,25113,50 BELLMAN DR Nepean,asphalt,20,3,n,none,y,n,45.3266358533,-75.7829933438
139,613,6008,1404 LEXINGTON ST Old Ottawa,gravel,25,0,n,none,n,y,45.3688579248,-75.7145055859
140,320,25114,1190 DEER PARK RD Nepean,asphalt,15,0,n,none,n,y,45.3617258795,-75.7193678879
141,234,25115,107 CHESTERTON DR Nepean,asphalt,9,1,n,none,y,n,45.3520476028,-75.7193026527
142,234,25116,107 CHESTERTON DR Nepean,asphalt,30,0,n,none,y,n,45.3521011349,-75.7210623692
143,231,25117,37 CHARTWELL AVE Nepean,asphalt,12,1,n,none,y,n,45.3323606634,-75.7667723648
144,569,25118,60 KNOXDALE RD Nepean,asphalt,16,2,n,none,n,n,45.3299833359,-75.7615333336
145,1095,25120,1585 TENTH LINE RD Cumberland,asphalt,175,9,n,none,y,n,45.4712000027,-75.4924000006
146,842,25121,346 KENNEDY LANE Cumberland,asphalt,18,1,n,none,y,n,45.478418104,-75.5042100955
147,268,25122,1295 COLONIAL RD Cumberland,asphalt,80,0,n,none,y,n,45.4214693326,-75.4215436723
148,1019,25123,5495 SOUTH RIVER DR Rideau,asphalt,50,0,n,none,n,n,45.2305205111,-75.6800686959
149,1157,25125,100 WALTER BAKER PL Kanata,asphalt,220,4,n,none,y,n,45.2950772698,-75.9001234788
150,1010,4973,250 SOMERSET ST Old Ottawa,asphalt,43,2,n,none,y,n,45.4226776337,-75.677276388
151,1157,25126,100 WALTER BAKER PL Kanata,gravel,150,0,n,none,n,n,45.2970500021,-75.9060000003
152,825,25127,474 PICKFORD DR Kanata,gravel,20,0,n,none,n,n,45.307715651,-75.8876248041
153,206,25129,170 CASTLEFRANK RD Kanata,asphalt,40,0,n,none,y,n,45.2893585794,-75.8792644623
154,201,25130,4111 KANATA AVE Kanata,asphalt,70,2,n,none,y,n,45.3229969469,-75.9237052096
155,438,25131,400 GOLDRIDGE DRIVE Kanata,gravel,35,0,n,none,n,y,45.3175670605,-75.9235240928
156,164,25132,2500 CAMPEAU DR Kanata,asphalt,30,4,n,none,y,n,45.3213579397,-75.8966570173
157,164,25133,2500 CAMPEAU DR Kanata,asphalt,40,0,n,none,n,n,45.3199530627,-75.896542253
158,164,25134,2500 CAMPEAU DR Kanata,asphalt,150,4,n,none,y,n,45.3219269287,-75.8950243679
159,989,25136,1500 SHEA RD Goulbourn,asphalt,250,4,n,none,y,n,45.2632586173,-75.9067282492
160,374,25137,33 ELM CRES Goulbourn,gravel,35,0,n,none,n,n,45.2497315664,-75.9181620175
161,845,25138,2 PRETTY ST Goulbourn,asphalt,10,1,n,none,n,n,45.258533336,-75.9188999995
162,1176,25139,20 WEST RIDGE DR Goulbourn,gravel,25,0,n,none,n,n,45.2617520686,-75.9415630077
163,241,25140,1800 CITY PARK DR Gloucester,asphalt,22,2,n,none,n,n,45.4287000023,-75.6165500003
164,758,25141,1195 OGILVIE RD Gloucester,asphalt,4,50,n,none,y,n,45.4285418401,-75.6312854608
165,334,4954,201 DONALD ST Old Ottawa,asphalt,50,0,n,none,n,n,45.4281889706,-75.659876265
166,310,25143,119 DARWIN ST West Carleton,asphalt,50,2,n,none,y,n,45.4248166694,-76.2599499994
167,1133,25144,100 CLIFFORD CAMPBELL ST West Carleton,gravel,150,2,n,none,n,y,45.4698760423,-76.2058522907
168,1334,25145,262 LEN PURCELL DR West Carleton,gravel,200,0,n,none,n,n,45.4995000022,-76.0931666671
169,558,25146,3045 KINBURN SIDE RD West Carleton,asphalt,150,1,n,none,n,n,45.3930992402,-76.1870249125
170,1102,25147,1145 THOMAS A. DOLAN PKWY West Carleton,gravel,100,0,n,none,n,n,45.4214000025,-76.0251666672
171,903,25148,1030 RIDDELL DR Kanata,gravel,50,0,n,none,n,n,45.3771500023,-75.955566667
172,506,25150,3302 HUNTLEY RD Goulbourn,gravel,200,0,n,none,n,n,45.1982281713,-75.843642737
173,817,25151,6095 PERTH ST Goulbourn,asphalt,200,2,n,none,y,n,45.1960101807,-75.8381646317
174,752,25152,2778 MUNSTER RD Goulbourn,gravel,40,0,n,none,n,n,45.1680539831,-75.9443771373
175,734,25153,2890 MUNSTER RD Goulbourn,asphalt,30,0,n,none,n,n,45.1630004604,-75.9383921808
176,734,25154,2890 MUNSTER RD Goulbourn,gravel,30,0,n,none,n,n,45.1638867108,-75.9392453134
177,976,25155,5650 SCOBIE CRES Osgoode,asphalt,25,0,n,none,n,n,45.2298666693,-75.6421333337
178,1331,25156,6485 GREELY WEST DR Osgoode,gravel,10,0,n,none,n,n,45.2494835304,-75.5982341221
179,132,4962,100 BRAEMAR ST Old Ottawa,asphalt,300,0,n,none,n,n,45.4511113695,-75.6561235185
180,653,25157,5660 OSGOODE MAIN ST Osgoode,asphalt,100,2,n,none,y,n,45.147833336,-75.6014166666
181,533,25158,5565 JOELLA CRES Osgoode,gravel,10,0,n,none,n,n,45.1390004063,-75.6044878265
182,589,25159,7950 LAWRENCE ST Osgoode,asphalt,200,4,n,none,y,n,45.1633020352,-75.4542142924
183,914,25160,7818 RIDEAU STREET Osgoode,asphalt,40,0,n,none,y,n,45.1605361298,-75.4623681834
184,339,25161,2567 DOW ST Osgoode,asphalt,150,0,n,none,n,n,45.2380381048,-75.477800811
185,1213,25163,3151 YORKS CORNERS RD Osgoode,asphalt,100,0,n,none,n,n,45.2328833357,-75.4168833334
186,1217,25164,3242 YORKS CORNERS RD Osgoode,asphalt,50,0,n,none,n,n,45.2289248921,-75.4156489473
187,749,25165,5065 NINTH LINE RD Gloucester,gravel,50,1,n,none,n,n,45.3340833361,-75.4944999999
188,364,25166,4825 EIGHTH LINE RD Gloucester,gravel,50,0,n,none,n,n,45.3458969936,-75.5186388551
189,60,25168,3290 LEITRIM RD Gloucester,asphalt,75,2,n,none,n,y,45.3303666692,-75.593616667
190,603,25169,4561 BANK ST Gloucester,asphalt,60,6,n,none,y,n,45.3309232871,-75.5984475067
191,383,25171,100 FABLE ST Nepean,asphalt,6,0,n,none,n,n,45.2778098993,-75.7650877167
192,1070,25172,93 HOULAHAN ST Nepean,asphalt,50,0,n,none,n,n,45.2620128743,-75.7677298123
193,1174,25173,30 WESSEX RD Nepean,asphalt,15,2,n,none,y,y,45.2736583475,-75.7520176452
194,732,25174,280 MOUNTSHANNON DR Nepean,asphalt,12,2,n,none,n,n,45.286251907,-75.7416905903
195,389,25175,4301 FALLOWFIELD RD Nepean,asphalt,50,0,n,none,n,y,45.274533106,-75.7926269473
196,657,25176,110 MALVERN DR Nepean,asphalt,200,10,n,none,y,n,45.2811184362,-75.7616409544
197,628,25178,700 LONGFIELDS DR Nepean,asphalt,100,2,n,none,n,n,45.2812902174,-75.7425335809
198,988,25179,681 SEYTON DR Nepean,asphalt,30,2,n,none,y,n,45.3151333353,-75.8353666661
199,10,25180,3939 ALBION RD Gloucester,gravel,40,1,n,none,n,y,45.3411810273,-75.6352223862
200,1111,25181,3580 TRAPPER'S RD Gloucester,asphalt,15,1,n,none,n,n,45.3470614689,-75.6446120623
201,307,25182,3380 D'AOUST AVE Gloucester,asphalt,50,3,n,none,y,n,45.3500833354,-75.6362000003
202,1031,25183,1735 ST. BERNARD ST Gloucester,asphalt,8,0,n,none,n,n,45.3518093021,-75.6257535079
203,1007,25184,1779 ST. BARBARA ST Gloucester,asphalt,10,0,n,none,n,y,45.3555125746,-75.6250798905
204,964,25185,2999 SABLE RIDGE DR Gloucester,asphalt,25,2,n,none,n,n,45.3561133024,-75.6358787268
205,970,25186,3585 SARSFIELD RD Cumberland,asphalt,44,1,n,none,n,n,45.4406000028,-75.3431999998
206,376,4961,294 ELMGROVE AVENUE Old Ottawa,asphalt,20,0,n,none,y,n,45.394285915,-75.7526657494
207,798,6009,645 PARKVIEW RD Old Ottawa,asphalt,50,0,n,none,n,n,45.387152546,-75.7384080089
208,79,4901,141 BAYVIEW RD Old Ottawa,asphalt,75,3,n,none,y,n,45.4078055524,-75.7219536371
209,1168,4985,40 FAIRMONT AVE Old Ottawa,asphalt,35,4,n,none,n,n,45.4032696952,-75.7242689063
210,793,25188,366 PARKDALE AVE Old Ottawa,asphalt,16,0,y,meters,n,n,45.4015498329,-75.7299385152
211,793,25189,366 PARKDALE AVE Old Ottawa,asphalt,16,0,y,meters,n,n,45.401425581,-75.7305075482
212,223,4989,80 CHAMBERLAIN AVE Old Ottawa,asphalt,15,0,n,none,n,n,45.4061032414,-75.6962626762
213,940,4992,2960 RIVERSIDE DR Old Ottawa,asphalt,112,3,n,none,y,n,45.3694112491,-75.6907829364
214,1186,25190,1 WINDSOR AVE Old Ottawa,asphalt,25,0,n,none,n,n,45.3931928896,-75.6769538806
215,522,4958,320 JACK PURCELL LANE Old Ottawa,asphalt,7,3,n,permit,n,n,45.4155988512,-75.6891215464
216,508,4959,3 HURDMAN RD Old Ottawa,gravel,30,0,n,none,n,y,45.418208914,-75.6687875119
217,660,4980,41 ROBINSON AVE Old Ottawa,asphalt,10,0,n,none,n,y,45.421933336,-75.6686833333
218,658,4972,60 MANN AVE Old Ottawa,asphalt,100,3,n,none,y,n,45.4192361062,-75.6748588781
219,1191,25191,72 MEDHURST DR Nepean,asphalt,20,0,n,none,n,n,45.3358000024,-75.7457666671
220,705,25193,1765 MERIVALE RD Nepean,asphalt,80,4,n,none,n,n,45.3416000022,-75.7272833334
221,269,25194,15 COLONNADE RD Nepean,gravel,50,0,n,none,n,y,45.3443595139,-75.7173074379
222,1207,25195,1701 WOODROFFE AVE Nepean,asphalt,500,10,n,none,y,n,45.3273058293,-75.7437000687
223,1207,25196,1701 WOODROFFE AVE Nepean,asphalt,110,5,n,none,y,n,45.327045793,-75.7465983313
224,449,25223,135 CRAIG HENRY DR Nepean,asphalt,32,2,n,none,y,n,45.3332219592,-75.7739882015
225,1109,4970,2240 TORQUAY AVE Old Ottawa,asphalt,145,4,n,none,y,n,45.3481666693,-75.7744333332
226,393,25197,58 FIELDROW ST Nepean,asphalt,30,0,n,none,n,n,45.3448242763,-75.7376556048
227,518,25198,76 INVERNESS AVE Nepean,asphalt,8,1,n,none,y,n,45.3592500028,-75.7217666668
228,31,4948,1665 APELDOORN AVE Old Ottawa,asphalt,20,4,n,none,n,n,45.3598459029,-75.7026449864
229,889,25199,6047 PRINCE OF WALES DR Rideau,gravel,15,0,n, ,n,n,45.1740116798,-75.7159105627
230,1171,25200,1604 OLD WELLINGTON ST Rideau,asphalt,50,0,n,none,y,n,45.1490268808,-75.6478545023
231,1510,25202,2549 DONNELLY DR Rideau,gravel,10,0,n,none,n,y,45.0655588199,-75.6626644649
232,273,25203,2300 COMMUNITY WAY Rideau,asphalt,60,0,n,none,y,n,45.1305647142,-75.7116427361
233,273,25204,2300 COMMUNITY WAY Rideau,asphalt,40,2,n,none,y,n,45.129749424,-75.711524066
234,273,25205,2300 COMMUNITY WAY Rideau,gravel,100,0,n,none,n,n,45.1307389391,-75.7095492044
235,1314,25206,7747 GREENLINE RD Rideau,gravel,14,0,n,none,n,n,45.0735482879,-75.6432276574
236,1074,4909,260 SUNNYSIDE AVE Old Ottawa,asphalt,0,0,n, ,n, ,45.3945987599,-75.6818863156
237,1159,25209,10 WARNER COLPITTS LANE Goulbourn,asphalt,100,2,n,none,y,y,45.2610083582,-75.9259157557
238,1160,25210,10 WARNER COLPITTS LANE Goulbourn,gravel,50,0,n,none,n,y,45.2592868439,-75.9283587628
239,392,25211,1751 MAIN ST Goulbourn,gravel,10,0,n,none,n,n,45.2500630341,-75.9109140622
240,1620,25212,3412 RICHMOND RD Nepean,asphalt,22,0,n,none,n,n,45.3391336502,-75.8091089847
241,1620,25213,3412 RICHMOND RD Nepean,gravel,30,0,n,none,n,y,45.3411258807,-75.8081260068
242,850,25214,3901 RIDEAU VALLEY DRIVE,gravel,100,0,n,none,n,n,45.2471170261,-75.7098093426
243,713,25216,1140 MILL ST Rideau,asphalt,17,0,n,none,y,n,45.2256725701,-75.6839178727
244,531,25217,3131 JOCKVALE RD Nepean,asphalt,50,2,n,none,y,n,45.2691194989,-75.7508803915
245,1087,25218,44 TARTAN DR Nepean,asphalt,22,1,n,none,n,n,45.2673023704,-75.7612690787
246,311,25219,16 ROWLEY AVE Nepean,asphalt,3,2,n,none,y,n,45.3491532296,-75.7417900129
247,311,25220,16 ROWLEY AVE Nepean,asphalt,15,1,n,none,y,n,45.3492612794,-75.7413453748
248,849,25221,1463 PRINCE OF WALES DR Old Ottawa,asphalt,10,0,n,none,y,n,45.3676401049,-75.7002777905
249,493,4915,804 HOG'S BACK RD Old Ottawa,asphalt,50,0,n,none,y,n,45.3689920102,-75.6994952216
250,1016,25207,5495 SOUTH RIVER DR Rideau,asphalt,50,0,n,none,y,n,45.2302071196,-75.6796267902
251,1607,25227,727 TRIM RD Cumberland,gravel,300,0,y,meters,n,n,45.5050443965,-75.4922664105
252,1608,25228,1046 ST JOSEPH BLVD Innes,gravel,200,0,n,none,y,y,45.4522333359,-75.5768833337
253,992,25229,813 SHEFFORD RD Gloucester,gravel,150,0,n,none,n,n,45.4594541633,-75.5859489477
254,1611,25230,3911 CARP RD West Carleton,asphalt,20,1,n,none,y,n,45.3512833359,-76.0471666666
255,1611,25232,3911 CARP RD West Carleton,gravel,40,0,n,none,n,n,45.352083336,-76.0528333329
256,1614,25233,821 MARCH RD Kanata,gravel,25,0,n,none,y,n,45.3555263863,-75.9339638163
257,186,25234,3127 CARLING AVE Nepean,asphalt,95,2,n,none,y,n,45.350383336,-75.8177166671
258,285,25235,401 CORKSTOWN RD Nepean,gravel,200,0,n,none,y,n,45.3391763451,-75.8535770307
259,1150,25236,250 WALDEN DR Kanata,gravel,50,0,n,none,n,n,45.3331867909,-75.9177237376
260,1157,25237,100 WALTER BAKER PL Kanata,gravel,100,0,n,none,y,y,45.2916579339,-75.9000462133
261,137,25238,65 STONEHAVEN DR Kanata,asphalt,80,3,n,none,y,y,45.2905333359,-75.8568499994
262,1135,25240,8215 VICTORIA ST Osgoode,asphalt,60,0,n,none,y,n,45.2357166688,-75.4740333337
263,532,25241,3435 JOCKVALE RD Nepean,gravel,40,0,n,none,n,n,45.2615293304,-75.731891725
264,1634,25242,52 RIVERSTONE DR Nepean,gravel,80,0,n,none,n,n,45.262005601,-75.7279841132
265,1536,25243,5201 MCLEAN CRES Rideau,gravel,25,0,n,none,n,n,45.2454191048,-75.7019562862
266,925,25244,660 RIVER RD Gloucester,asphalt,54,4,n,none,n,n,45.270833336,-75.699616666
267,60,25245,3290 LEITRIM RD Gloucester,gravel,200,0,n,none,n,n,45.3291885124,-75.5944253799
268,603,25246,4561 BANK ST Gloucester,asphalt,260,2,n,none,y,n,45.3313666686,-75.5967333334
269,1664,25248,7064 DONWEL DRIVE Greely,gravel,6,0,n,none,n,n,45.2525320667,-75.5561899967
270,1631,25249,15 KITTIWAKE DR Goulbourn,asphalt,18,0,n, ,n,y,45.2683032252,-75.9434180146
271,1612,25250,1557 LANDEL DR Kanata,gravel,20,0,n,none,n,y,45.3605488511,-75.9777971948
272,1615,25251,1251 HALTON TER Kanata,asphalt,30,0,n,none,y,n,45.3502298098,-75.9404911748
273,1615,25252,1251 HALTON TER Kanata,asphalt,20,0,n,none,y,n,45.3514320474,-75.9419512899
274,439,25254,67 INSMILL CRES Kanata,asphalt,35,2, , ,y,y,45.3112441558,-75.9297498076
275,1671,25256,96 BRIDLE PARK DRIVE Kanata,asphalt,31,0,n,none,n,n,45.2835585377,-75.8490268553
276,1672,25257,53 BLACK TERN CRESCENT Kanata,asphalt,19,1,n,none,n,n,45.294379819,-75.8543849866
277,1672,25258,53 BLACK TERN CRESCENT Kanata,asphalt,29,2,n,none,n,n,45.2943161996,-75.854167434
278,1573,25260,300 DEN HAAG DR Old Ottawa,asphalt,20,0,n,none,y,y,45.4403463906,-75.6328088196
279,1676,25261,797 SCALA AVE Orleans,asphalt,30,0,n,none,n,n,45.46213376,-75.4689894696
280,1594,25262,2940 BARLOW CRES West Carleton,gravel,4,0,n,none,n,y,45.4629256738,-75.972388587
281,828,25263,270 PINHEY POINT RD Kanata,gravel,12,0,n,none,n,n,45.439683336,-75.9536499998
282,828,25264,270 PINHEY POINT RD Kanata,gravel,4,0,n,none,n,n,45.4420033398,-75.9538467995
283,1006,25265,1730 SIXTH LINE RD Kanata,gravel,15,0,n,none,n,n,45.4067390716,-75.9268126615
284,903,25266,1030 RIDDELL DR Kanata,gravel,20,0,n,none,n,n,45.3767034647,-75.9558108009
285,1538,25267,3806 CARP RD West Carleton,gravel,50,0,n,none,y,n,45.3485069155,-76.0358623191
286,734,25268,2890 MUNSTER RD Goulbourn,gravel,15,0,n,none,n,n,45.1624901181,-75.9393506664
287,165,25271,6301 CAMPEAU DR Kanata,gravel,10,0,n,none,y,n,45.3137455285,-75.9122268534
288,204,25272,146 CASTLEFRANK RD Kanata,gravel,8,0,n,none,n,y,45.2931903456,-75.8757319174
289,1633,25273,80 SAWYER WAY Kanata,asphalt,20,0, , , , ,45.2825748459,-75.8413812651
290,1633,25274,80 SAWYER WAY Kanata,asphalt,20,0, , , , ,45.2827366757,-75.8409849041
291,418,25274,14 FRINGEWOOD DR Goulbourn,asphalt,50,0, , ,y, ,45.2797087772,-75.9110951506
292,1001,25276,4386 SPRATT RD Gloucester,asphalt,15,0,n,none,n,n,45.2754953572,-75.6898137221
293,363,25278,960 EIFFEL AVE Old Ottawa,gravel,5,0,n,none,n,y,45.3681245812,-75.7069916822
294,65,25279,26 BARLYN AVE Nepean,asphalt,4,2,n,none,y,n,45.3644768979,-75.7217459713
295,338,32784,411 DOVERCOURT AVE Old Ottawa,asphalt,80,4,n,none,y,n,45.38322825,-75.7537960642
296,840,25281,130 PRESTON ST Old Ottawa,asphalt,40,2,n,none,y,n,45.4078362442,-75.7152226375
297,403,25282,1900 FLORIDA AVE Old Ottawa,gravel,2,0,n,none,n,y,45.3826276867,-75.6387205076
298,1661,25283,28 CRESTHAVEN DRIVE Nepean,asphalt,30,2,n, ,n, ,45.2839956184,-75.7073495963
299,571,28285,180 KNOXDALE ROAD Nepean,asphalt,200,4, , , ,y,45.3259418562,-75.7709411879
300,1700,25286,5 BEAVERBROOK RD Kanata,asphalt,100,3, , ,y, ,45.328566669,-75.90185
301,541,25149,108 JUANITA AVE West Carleton,gravel,100,4,n,none,y,n,45.3492618328,-76.0400977806
302,942,4960,15 ROCKCLIFFE WAY Old Ottawa,gravel,20,0,n,none,n,n,45.4445722729,-75.6747570629
303,9,25162,2785 8TH LINE RD Osgoode,asphalt,100,0,n,none,y,n,45.230150002,-75.4689666663
304,916,25170,220 STONEWAY DR Nepean,asphalt,10,1,n,none,y,n,45.2882500494,-75.7156011432
305,582,25177,76 LARKIN DR Nepean,asphalt,12,2,n,none,y,n,45.2823525763,-75.7631337321
306,348,25187,1115 DUNNING RD Cumberland,asphalt,105,2,n,none,n,n,45.5139500022,-75.40335
307,940,4966,2960 RIVERSIDE DR Old Ottawa,asphalt,130,0,y,meters,n,n,45.3676166689,-75.6911666663
308,1190,25192,30 WOODFIELD DR Nepean,asphalt,20,1,n,none,n,n,45.3369862256,-75.7299626867
309,255,4987,937 CLYDE AVE Old Ottawa,asphalt,80,2,n,none,y,n,45.3748666688,-75.7468333339
310,826,25201,6836 MALAKOFF RD Rideau,asphalt,20,2,n,none,y,n,45.0913291586,-75.7568692803
311,1501,25208,70 LENNOX STREET Richmond,gravel,10,0,n,none,n,y,45.1881462348,-75.8336740809
312,850,25215,3901 RIDEAU VALLEY DRIVE,gravel,5,0,n,none,n,n,45.2604752212,-75.708158551
313,1530,25222,192 LANGSTAFF DR West Carleton,gravel,100,0,n,none,n,y,45.3494601712,-76.0356331294
314,1611,25231,3911 CARP RD West Carleton,asphalt,100,0,n,none,y,n,45.3503000022,-76.0462999996
315,1302,25239,94 STEEPLE CHASE DR Kanata,asphalt,40,0,n,none, ,n,45.3000233214,-75.8537305055
316,1652,25247,100 GROVEHURST DR Nepean,asphalt,28,2,n,none,n,n,45.2773520389,-75.7115190662
317,1671,25255,96 BRIDLE PARK DRIVE Kanata,asphalt,22,2,n,none,y,n,45.2836850407,-75.8496984925
318,80,25270,1365 HALTON TER Kanata,asphalt,9,0,n,none,n,n,45.3504300373,-75.9367056467
319,583,25277,29 LARKSPUR DR Nepean,asphalt,4,0, , ,y,n,45.3266988415,-75.8134201287
320,1656,25284,36 BERRY GLEN ST Nepean,asphalt,26,2, , , , ,45.2665833359,-75.7127999997
321,1704,25287,591 KOCHAR DR Old Ottawa,asphalt,15,1, , , ,y,45.3589666687,-75.6944500004
322,1678,25296,670 AQUAVIEW DRIVE Cumberland,asphalt,36,3, , , , ,45.4582833353,-75.4682499997
323,1333,25304,2135 TRIM RD Cumberland, ,0,0, , , , ,45.466516681,-75.4488899994
324,115,25002,1471 BLAIR RD Gloucester,asphalt,120,0,n,none,n,n,45.4260666693,-75.5988666664
325,258,4904,40 COBOURG ST Old Ottawa,asphalt,25,1,n,none,y,n,45.4349773721,-75.6816548029
326,2231,25288,591 KOCHAR DR Old Ottawa,gravel,9,0, , , ,y,45.3578305629,-75.7001380029
327,1626,25290,85 HARTSMERE DR Goulbourn,asphalt,30,0, , , , ,45.2480332695,-75.9046793505
328,1716,25291,3035 CONROY RD Old Ottawa,gravel,40,0, , , , ,45.3825421504,-75.618918674
329,1716,25292,3035 CONROY RD Old Ottawa,gravel,40,0, , , , ,45.3824287192,-75.6201256644
330,1716,25293,3035 CONROY RD Old Ottawa,gravel,50,0, , , ,y,45.3792456044,-75.6269224039
331,1716,25294,3035 CONROY RD Old Ottawa,gravel,65,2, , ,y,y,45.3810080867,-75.6239602838
332,1333,25295,2135 TRIM RD Cumberland,gravel,100,0, , , , ,45.4655851461,-75.4479021067
333,1731,25297,1160 MOODIE DR Nepean,gravel,15,0, , , ,y,45.2718985443,-75.8061117622
334,1731,25298,1160 MOODIE DR Nepean,gravel,15,0, , , ,y,45.266433336,-75.8118666662
335,1663,25299,3740 MOUNTAIN MEADOWS CRESCENT Riversid*,asphalt,23,2, , , , ,45.2837405884,-75.6850452794
336,66,25300,2045 HWY 174 Cumberland,asphalt,15,0, , , , ,45.5166744409,-75.4302027032
337,66,25301,2045 HWY 174 Cumberland,asphalt,20,0, , , , ,45.5172333361,-75.4304499995
338,66,25302,2045 HWY 174 Cumberland,gravel,20,0, , , , ,45.5171072578,-75.4313728766
339,1333,25303,2135 TRIM RD Cumberland, ,0,0, , , , ,45.4664368525,-75.4513243921
340,269,25305,15 COLONNADE RD Nepean,gravel,50,0,n,none,n,y,45.3454715849,-75.7152817506
341,425,None,24 GIBBARD AVENUE Nepean,asphalt,None,None,None,None,None,None,45.3234250367,-75.7733634337
342,857,25000,2940 OLD MONTREAL RD Cumberland,gravel,80,3,n,none,n,y,45.5180465444,-75.3914372518
343,481,4908,1480 HERON RD Old Ottawa,asphalt,80,4,n,none,y,n,45.3792500027,-75.6540333328
344,463,25001,4355 HALMONT DR Gloucester,asphalt,65,2,n,none,y,n,45.4285500021,-75.6199833327
345,115,25003,1471 BLAIR RD Gloucester,asphalt,45,2,n,none,n,n,45.4275076344,-75.6001598807
346,766,25004,2379 OGILVIE RD Gloucester,asphalt,11,1,n,none,n,n,45.4542085336,-75.5981056098
347,291,4995,515 COTE ST Old Ottawa,asphalt,210,9,n,none,y,n,45.4360666688,-75.6474166666
348,291,4975,515 COTE ST Old Ottawa,asphalt,24,1,n,none,y,n,45.4366697198,-75.6463534253
349,1028,25005,380 SPRINGFIELD RD Rockcliffe Park,asphalt,28,2,n,none,y,n,45.4508166688,-75.6781999999
350,1574,25007,300 COVENTRY ROAD Old Ottawa,asphalt,1300,25,y,attendants,y,n,45.4206487478,-75.6548588942
